municipality,state,ibge_code,latitude,longitude
Adamantina,SP,3500105,-21.682,-51.0737
Adolfo,SP,3500204,-21.2325,-49.6451
Aguaí,SP,3500303,-22.0572,-46.9735
Águas da Prata,SP,3500402,-21.9319,-46.7176
Águas de Lindóia,SP,3500501,-22.4733,-46.6314
Águas de Santa Bárbara,SP,3500550,-22.8812,-49.2421
Águas de São Pedro,SP,3500600,-22.5977,-47.8734
Agudos,SP,3500709,-22.4694,-48.9863
Alambari,SP,3500758,-23.5503,-47.898
Alfredo Marcondes,SP,3500808,-21.9527,-51.414
Altair,SP,3500907,-20.5242,-49.0571
Altinópolis,SP,3501004,-21.0214,-47.3712
Alto Alegre,SP,3501103,-21.5811,-50.168
Alumínio,SP,3501152,-23.5306,-47.2546
Álvares Florence,SP,3501202,-20.3203,-49.9141
Álvares Machado,SP,3501301,-22.0764,-51.4722
Álvaro de Carvalho,SP,3501400,-22.0841,-49.719
Alvinlândia,SP,3501509,-22.4435,-49.7623
Americana,SP,3501608,-22.7374,-47.3331
Américo Brasiliense,SP,3501707,-21.7288,-48.1147
Américo de Campos,SP,3501806,-20.2985,-49.7359
Amparo,SP,3501905,-22.7088,-46.772
Analândia,SP,3502002,-22.1289,-47.6619
Andradina,SP,3502101,-20.8948,-51.3786
Angatuba,SP,3502200,-23.4917,-48.4139
Anhembi,SP,3502309,-22.793,-48.1336
Anhumas,SP,3502408,-22.2934,-51.3895
Aparecida,SP,3502507,-22.8495,-45.2325
Aparecida d'Oeste,SP,3502606,-20.4487,-50.8835
Apiaí,SP,3502705,-24.5108,-48.8443
Araçariguama,SP,3502754,-23.4366,-47.0608
Araçatuba,SP,3502804,-21.2076,-50.4401
Araçoiaba da Serra,SP,3502903,-23.5029,-47.6166
Aramina,SP,3503000,-20.0882,-47.7873
Arandu,SP,3503109,-23.1386,-49.0487
Arapeí,SP,3503158,-22.6717,-44.4441
Araraquara,SP,3503208,-21.7845,-48.178
Araras,SP,3503307,-22.3572,-47.3842
Arco-Íris,SP,3503356,-21.7728,-50.466
Arealva,SP,3503406,-22.031,-48.9135
Areias,SP,3503505,-22.5786,-44.6992
Areiópolis,SP,3503604,-22.6672,-48.6681
Ariranha,SP,3503703,-21.1872,-48.7904
Artur Nogueira,SP,3503802,-22.5727,-47.1727
Arujá,SP,3503901,-23.3965,-46.32
Aspásia,SP,3503950,-20.16,-50.728
Assis,SP,3504008,-22.66,-50.4183
Atibaia,SP,3504107,-23.1171,-46.5563
Auriflama,SP,3504206,-20.6836,-50.5572
Avaí,SP,3504305,-22.1514,-49.3356
Avanhandava,SP,3504404,-21.4584,-49.9509
Avaré,SP,3504503,-23.1067,-48.9251
Bady Bassitt,SP,3504602,-20.9197,-49.4385
Balbinos,SP,3504701,-21.8963,-49.3619
Bálsamo,SP,3504800,-20.7348,-49.5865
Bananal,SP,3504909,-22.6819,-44.3281
Barão de Antonina,SP,3505005,-23.6284,-49.5634
Barbosa,SP,3505104,-21.2657,-49.9518
Bariri,SP,3505203,-22.073,-48.7438
Barra Bonita,SP,3505302,-22.4909,-48.5583
Barra do Chapéu,SP,3505351,-24.4722,-49.0238
Barra do Turvo,SP,3505401,-24.759,-48.5013
Barretos,SP,3505500,-20.5531,-48.5698
Barrinha,SP,3505609,-21.1864,-48.1636
Barueri,SP,3505708,-23.5057,-46.879
Bastos,SP,3505807,-21.921,-50.7357
Batatais,SP,3505906,-20.8929,-47.5921
Bauru,SP,3506003,-22.3246,-49.0871
Bebedouro,SP,3506102,-20.9491,-48.4791
Bento de Abreu,SP,3506201,-21.2686,-50.814
Bernardino de Campos,SP,3506300,-23.0164,-49.4679
Bertioga,SP,3506359,-23.8486,-46.1396
Bilac,SP,3506409,-21.404,-50.4746
Birigui,SP,3506508,-21.291,-50.3432
Biritiba-Mirim,SP,3506607,-23.5698,-46.0407
Boa Esperança do Sul,SP,3506706,-21.9918,-48.3906
Bocaina,SP,3506805,-22.1365,-48.523
Bofete,SP,3506904,-23.1055,-48.2582
Boituva,SP,3507001,-23.2855,-47.6786
Bom Jesus dos Perdões,SP,3507100,-23.1356,-46.4675
Bom Sucesso de Itararé,SP,3507159,-24.3155,-49.1451
Borá,SP,3507209,-22.2696,-50.5409
Boracéia,SP,3507308,-22.1926,-48.7808
Borborema,SP,3507407,-21.6214,-49.0741
Borebi,SP,3507456,-22.5728,-48.9707
Botucatu,SP,3507506,-22.8837,-48.4437
Bragança Paulista,SP,3507605,-22.9527,-46.5419
Braúna,SP,3507704,-21.499,-50.3175
Brejo Alegre,SP,3507753,-21.1651,-50.1861
Brodowski,SP,3507803,-20.9845,-47.6572
Brotas,SP,3507902,-22.2795,-48.1251
Buri,SP,3508009,-23.7977,-48.5958
Buritama,SP,3508108,-21.0661,-50.1475
Buritizal,SP,3508207,-20.1911,-47.7096
Cabrália Paulista,SP,3508306,-22.4576,-49.3393
Cabreúva,SP,3508405,-23.3053,-47.1362
Caçapava,SP,3508504,-23.0992,-45.7076
Cachoeira Paulista,SP,3508603,-22.6665,-45.0154
Caconde,SP,3508702,-21.528,-46.6437
Cafelândia,SP,3508801,-21.8031,-49.6092
Caiabu,SP,3508900,-22.0127,-51.2394
Caieiras,SP,3509007,-23.3607,-46.7397
Caiuá,SP,3509106,-21.8322,-51.9969
Cajamar,SP,3509205,-23.355,-46.8781
Cajati,SP,3509254,-24.7324,-48.1223
Cajobi,SP,3509304,-20.8773,-48.8063
Cajuru,SP,3509403,-21.2749,-47.303
Campina do Monte Alegre,SP,3509452,-23.5895,-48.4758
Campinas,SP,3509502,-22.9053,-47.0659
Campo Limpo Paulista,SP,3509601,-23.2078,-46.7889
Campos do Jordão,SP,3509700,-22.7296,-45.5833
Campos Novos Paulista,SP,3509809,-22.602,-49.9987
Cananéia,SP,3509908,-25.0144,-47.9341
Canas,SP,3509957,-22.7003,-45.0521
Cândido Mota,SP,3510005,-22.7471,-50.3873
Cândido Rodrigues,SP,3510104,-21.3275,-48.6327
Canitar,SP,3510153,-23.004,-49.7839
Capão Bonito,SP,3510203,-24.0113,-48.3482
Capela do Alto,SP,3510302,-23.4685,-47.7388
Capivari,SP,3510401,-22.9951,-47.5071
Caraguatatuba,SP,3510500,-23.6125,-45.4125
Carapicuíba,SP,3510609,-23.5235,-46.8407
Cardoso,SP,3510708,-20.08,-49.9183
Casa Branca,SP,3510807,-21.7708,-47.0852
Cássia dos Coqueiros,SP,3510906,-21.2801,-47.1643
Castilho,SP,3511003,-20.8689,-51.4884
Catanduva,SP,3511102,-21.1314,-48.977
Catiguá,SP,3511201,-21.0519,-49.0616
Cedral,SP,3511300,-20.9009,-49.2664
Cerqueira César,SP,3511409,-23.038,-49.1655
Cerquilho,SP,3511508,-23.1665,-47.7459
Cesário Lange,SP,3511607,-23.226,-47.9545
Charqueada,SP,3511706,-22.5096,-47.7755
Clementina,SP,3511904,-21.5604,-50.4525
Colina,SP,3512001,-20.7114,-48.5387
Colômbia,SP,3512100,-20.1768,-48.6865
Conchal,SP,3512209,-22.3375,-47.1729
Conchas,SP,3512308,-23.0154,-48.0134
Cordeirópolis,SP,3512407,-22.4778,-47.4519
Coroados,SP,3512506,-21.3521,-50.2859
Coronel Macedo,SP,3512605,-23.6261,-49.31
Corumbataí,SP,3512704,-22.2213,-47.6215
Cosmópolis,SP,3512803,-22.6419,-47.1926
Cosmorama,SP,3512902,-20.4755,-49.7827
Cotia,SP,3513009,-23.6022,-46.919
Cravinhos,SP,3513108,-21.338,-47.7324
Cristais Paulista,SP,3513207,-20.4036,-47.4209
Cruzália,SP,3513306,-22.7373,-50.7909
Cruzeiro,SP,3513405,-22.5728,-44.969
Cubatão,SP,3513504,-23.8911,-46.424
Cunha,SP,3513603,-23.0731,-44.9576
Descalvado,SP,3513702,-21.9002,-47.6181
Dirce Reis,SP,3513850,-20.4642,-50.6073
Divinolândia,SP,3513900,-21.6637,-46.7361
Dobrada,SP,3514007,-21.5155,-48.3935
Dois Córregos,SP,3514106,-22.3673,-48.3819
Dolcinópolis,SP,3514205,-20.124,-50.5149
Dourado,SP,3514304,-22.1044,-48.3178
Dracena,SP,3514403,-21.4843,-51.535
Duartina,SP,3514502,-22.4146,-49.4084
Dumont,SP,3514601,-21.2324,-47.9756
Echaporã,SP,3514700,-22.4326,-50.2038
Eldorado,SP,3514809,-24.5281,-48.1141
Elias Fausto,SP,3514908,-23.0428,-47.3682
Elisiário,SP,3514924,-21.1678,-49.1146
Embaúba,SP,3514957,-20.9796,-48.8325
Embu das Artes,SP,3515004,-23.6437,-46.8579
Embu-Guaçu,SP,3515103,-23.8297,-46.8136
Emilianópolis,SP,3515129,-21.8314,-51.4832
Engenheiro Coelho,SP,3515152,-22.4836,-47.211
Espírito Santo do Pinhal,SP,3515186,-22.1909,-46.7477
Espírito Santo do Turvo,SP,3515194,-22.6925,-49.4341
Estrela d'Oeste,SP,3515202,-20.2875,-50.4049
Estrela do Norte,SP,3515301,-22.4859,-51.6632
Euclides da Cunha Paulista,SP,3515350,-22.5545,-52.5928
Fartura,SP,3515400,-23.3916,-49.5124
Fernandópolis,SP,3515509,-20.2806,-50.2471
Fernando Prestes,SP,3515608,-21.2661,-48.6874
Fernão,SP,3515657,-22.3607,-49.5187
Ferraz de Vasconcelos,SP,3515707,-23.5411,-46.371
Flora Rica,SP,3515806,-21.6727,-51.3821
Floreal,SP,3515905,-20.6752,-50.1513
Flórida Paulista,SP,3516002,-21.6127,-51.1724
Florínia,SP,3516101,-22.868,-50.6814
Franca,SP,3516200,-20.5352,-47.4039
Francisco Morato,SP,3516309,-23.2792,-46.7448
Franco da Rocha,SP,3516408,-23.3229,-46.729
Gabriel Monteiro,SP,3516507,-21.5294,-50.5573
Gália,SP,3516606,-22.2918,-49.5504
Garça,SP,3516705,-22.2125,-49.6546
Gastão Vidigal,SP,3516804,-20.7948,-50.1912
Gavião Peixoto,SP,3516853,-21.8367,-48.4957
General Salgado,SP,3516903,-20.6485,-50.364
Getulina,SP,3517000,-21.7961,-49.9312
Glicério,SP,3517109,-21.3812,-50.2123
Guaiçara,SP,3517208,-21.6195,-49.8013
Guaimbê,SP,3517307,-21.9091,-49.8986
Guaíra,SP,3517406,-20.3196,-48.312
Guapiaçu,SP,3517505,-20.7959,-49.2172
Guapiara,SP,3517604,-24.1892,-48.5295
Guará,SP,3517703,-20.4302,-47.8236
Guaraçaí,SP,3517802,-21.0292,-51.2119
Guaraci,SP,3517901,-20.4977,-48.9391
Guarani d'Oeste,SP,3518008,-20.0746,-50.3411
Guarantã,SP,3518107,-21.8942,-49.5914
Guararapes,SP,3518206,-21.2544,-50.6453
Guararema,SP,3518305,-23.4112,-46.0369
Guaratinguetá,SP,3518404,-22.8075,-45.1938
Guareí,SP,3518503,-23.3714,-48.1837
Guariba,SP,3518602,-21.3594,-48.2316
Guarujá,SP,3518701,-23.9888,-46.258
Guarulhos,SP,3518800,-23.4538,-46.5333
Guatapará,SP,3518859,-21.4944,-48.0356
Guzolândia,SP,3518909,-20.6467,-50.6645
Herculândia,SP,3519006,-22.0038,-50.3907
Holambra,SP,3519055,-22.6405,-47.0487
Hortolândia,SP,3519071,-22.8529,-47.2143
Iacanga,SP,3519105,-21.8896,-49.031
Iacri,SP,3519204,-21.8572,-50.6932
Iaras,SP,3519253,-22.8682,-49.1634
Ibaté,SP,3519303,-21.9584,-47.9882
Ibirá,SP,3519402,-21.083,-49.2448
Ibirarema,SP,3519501,-22.8185,-50.0739
Ibitinga,SP,3519600,-21.7562,-48.8319
Ibiúna,SP,3519709,-23.6596,-47.223
Icém,SP,3519808,-20.3391,-49.1915
Iepê,SP,3519907,-22.6602,-51.0779
Igaraçu do Tietê,SP,3520004,-22.509,-48.5597
Igarapava,SP,3520103,-20.0407,-47.7466
Igaratá,SP,3520202,-23.2037,-46.157
Iguape,SP,3520301,-24.699,-47.5537
Ilhabela,SP,3520400,-23.7785,-45.3552
Ilha Solteira,SP,3520442,-20.4326,-51.3426
Indaiatuba,SP,3520509,-23.0816,-47.2101
Indiana,SP,3520608,-22.1738,-51.2555
Indiaporã,SP,3520707,-19.979,-50.2909
Inúbia Paulista,SP,3520806,-21.7695,-50.9633
Ipaussu,SP,3520905,-23.0575,-49.6279
Iperó,SP,3521002,-23.3513,-47.6927
Ipeúna,SP,3521101,-22.4355,-47.7151
Ipiguá,SP,3521150,-20.6557,-49.3842
Iporanga,SP,3521200,-24.5847,-48.5971
Ipuã,SP,3521309,-20.4438,-48.0129
Iracemápolis,SP,3521408,-22.5832,-47.523
Irapuã,SP,3521507,-21.2768,-49.4164
Irapuru,SP,3521606,-21.5684,-51.3472
Itaberá,SP,3521705,-23.8638,-49.14
Itaí,SP,3521804,-23.4213,-49.092
Itajobi,SP,3521903,-21.3123,-49.0629
Itaju,SP,3522000,-21.9857,-48.8116
Itanhaém,SP,3522109,-24.1736,-46.788
Itaóca,SP,3522158,-24.6393,-48.8413
Itapecerica da Serra,SP,3522208,-23.7161,-46.8572
Itapetininga,SP,3522307,-23.5886,-48.0483
Itapeva,SP,3522406,-23.9788,-48.8764
Itapevi,SP,3522505,-23.5488,-46.9327
Itapira,SP,3522604,-22.4357,-46.8224
Itapirapuã Paulista,SP,3522653,-24.572,-49.1661
Itápolis,SP,3522703,-21.5942,-48.8149
Itaporanga,SP,3522802,-23.7043,-49.4819
Itapuí,SP,3522901,-22.2324,-48.7197
Itapura,SP,3523008,-20.6419,-51.5063
Itaquaquecetuba,SP,3523107,-23.4835,-46.3457
Itararé,SP,3523206,-24.1085,-49.3352
Itariri,SP,3523305,-24.2834,-47.1736
Itatiba,SP,3523404,-23.0035,-46.8464
Itatinga,SP,3523503,-23.1047,-48.6157
Itirapina,SP,3523602,-22.2562,-47.8166
Itirapuã,SP,3523701,-20.6416,-47.2194
Itobi,SP,3523800,-21.7309,-46.9743
Itu,SP,3523909,-23.2544,-47.2927
Itupeva,SP,3524006,-23.1526,-47.0593
Ituverava,SP,3524105,-20.3355,-47.7902
Jaborandi,SP,3524204,-20.6884,-48.4112
Jaboticabal,SP,3524303,-21.252,-48.3252
Jacareí,SP,3524402,-23.2983,-45.9658
Jaci,SP,3524501,-20.8805,-49.5797
Jacupiranga,SP,3524600,-24.6963,-48.0064
Jaguariúna,SP,3524709,-22.7037,-46.9851
Jales,SP,3524808,-20.2672,-50.5494
Jambeiro,SP,3524907,-23.2522,-45.6942
Jandira,SP,3525003,-23.5275,-46.9023
Jardinópolis,SP,3525102,-21.0176,-47.7606
Jarinu,SP,3525201,-23.1039,-46.728
Jaú,SP,3525300,-22.2936,-48.5592
Jeriquara,SP,3525409,-20.3116,-47.5918
Joanópolis,SP,3525508,-22.927,-46.2741
João Ramalho,SP,3525607,-22.2473,-50.7694
José Bonifácio,SP,3525706,-21.0551,-49.6892
Júlio Mesquita,SP,3525805,-22.0112,-49.7873
Jumirim,SP,3525854,-23.0884,-47.7868
Jundiaí,SP,3525904,-23.1852,-46.8974
Junqueirópolis,SP,3526001,-21.5103,-51.4342
Juquiá,SP,3526100,-24.3101,-47.6426
Juquitiba,SP,3526209,-23.9244,-47.0653
Lagoinha,SP,3526308,-23.0846,-45.1944
Laranjal Paulista,SP,3526407,-23.0506,-47.8375
Lavínia,SP,3526506,-21.1639,-51.0412
Lavrinhas,SP,3526605,-22.57,-44.9024
Leme,SP,3526704,-22.1809,-47.3841
Lençóis Paulista,SP,3526803,-22.6027,-48.8037
Limeira,SP,3526902,-22.566,-47.397
Lindóia,SP,3527009,-22.5226,-46.65
Lins,SP,3527108,-21.6718,-49.7526
Lorena,SP,3527207,-22.7334,-45.1197
Lourdes,SP,3527256,-20.966,-50.2263
Louveira,SP,3527306,-23.0856,-46.9484
Lucélia,SP,3527405,-21.7182,-51.0215
Lucianópolis,SP,3527504,-22.4294,-49.522
Luís Antônio,SP,3527603,-21.55,-47.7801
Luiziânia,SP,3527702,-21.6737,-50.3294
Lupércio,SP,3527801,-22.4146,-49.818
Lutécia,SP,3527900,-22.3384,-50.394
Macatuba,SP,3528007,-22.5002,-48.7102
Macaubal,SP,3528106,-20.8022,-49.9687
Macedônia,SP,3528205,-20.1444,-50.1973
Magda,SP,3528304,-20.6445,-50.2305
Mairinque,SP,3528403,-23.5398,-47.185
Mairiporã,SP,3528502,-23.3171,-46.5897
Manduri,SP,3528601,-23.0056,-49.3202
Marabá Paulista,SP,3528700,-22.1068,-51.9617
Maracaí,SP,3528809,-22.6149,-50.6713
Marapoama,SP,3528858,-21.2587,-49.13
Mariápolis,SP,3528908,-21.7959,-51.1824
Marília,SP,3529005,-22.2171,-49.9501
Marinópolis,SP,3529104,-20.4389,-50.8254
Martinópolis,SP,3529203,-22.1462,-51.1709
Matão,SP,3529302,-21.6025,-48.364
Mauá,SP,3529401,-23.6677,-46.4613
Mendonça,SP,3529500,-21.1757,-49.5791
Meridiano,SP,3529609,-20.3579,-50.1811
Mesópolis,SP,3529658,-19.9684,-50.6326
Miguelópolis,SP,3529708,-20.1796,-48.031
Mineiros do Tietê,SP,3529807,-22.412,-48.451
Miracatu,SP,3529906,-24.2766,-47.4625
Mira Estrela,SP,3530003,-19.9789,-50.139
Mirandópolis,SP,3530102,-21.1313,-51.1035
Mirante do Paranapanema,SP,3530201,-22.2904,-51.9084
Mirassol,SP,3530300,-20.8169,-49.5206
Mirassolândia,SP,3530409,-20.6179,-49.4617
Mococa,SP,3530508,-21.4647,-47.0024
Mogi das Cruzes,SP,3530607,-23.5208,-46.1854
Mogi Guaçu,SP,3530706,-22.3675,-46.9428
Mogi Mirim,SP,3530805,-22.4332,-46.9532
Mombuca,SP,3530904,-22.9285,-47.559
Monções,SP,3531001,-20.8509,-50.0975
Mongaguá,SP,3531100,-24.0809,-46.6265
Monte Alegre do Sul,SP,3531209,-22.6817,-46.681
Monte Alto,SP,3531308,-21.2655,-48.4971
Monte Aprazível,SP,3531407,-20.768,-49.7184
Monte Azul Paulista,SP,3531506,-20.9065,-48.6387
Monte Castelo,SP,3531605,-21.2981,-51.5679
Monteiro Lobato,SP,3531704,-22.9544,-45.8407
Monte Mor,SP,3531803,-22.945,-47.3122
Morro Agudo,SP,3531902,-20.7288,-48.0581
Morungaba,SP,3532009,-22.8811,-46.7896
Motuca,SP,3532058,-21.5103,-48.1538
Murutinga do Sul,SP,3532108,-20.9908,-51.2774
Nantes,SP,3532157,-22.6156,-51.24
Narandiba,SP,3532207,-22.4057,-51.5274
Natividade da Serra,SP,3532306,-23.3707,-45.4468
Nazaré Paulista,SP,3532405,-23.1747,-46.3983
Neves Paulista,SP,3532504,-20.843,-49.6358
Nhandeara,SP,3532603,-20.6945,-50.0436
Nipoã,SP,3532702,-20.9114,-49.7833
Nova Aliança,SP,3532801,-21.0156,-49.4986
Nova Campina,SP,3532827,-24.1224,-48.9022
Nova Canaã Paulista,SP,3532843,-20.3836,-50.9483
Nova Castilho,SP,3532868,-20.7615,-50.3477
Nova Europa,SP,3532900,-21.7765,-48.5705
Nova Granada,SP,3533007,-20.5321,-49.3123
Nova Guataporanga,SP,3533106,-21.332,-51.6447
Nova Independência,SP,3533205,-21.1026,-51.4905
Novais,SP,3533254,-20.9893,-48.9141
Nova Luzitânia,SP,3533304,-20.856,-50.2617
Nova Odessa,SP,3533403,-22.7832,-47.2941
Novo Horizonte,SP,3533502,-21.4651,-49.2234
Nuporanga,SP,3533601,-20.7296,-47.7429
Ocauçu,SP,3533700,-22.438,-49.922
Óleo,SP,3533809,-22.9435,-49.3419
Olímpia,SP,3533908,-20.7366,-48.9106
Onda Verde,SP,3534005,-20.6042,-49.2929
Oriente,SP,3534104,-22.1549,-50.0971
Orindiúva,SP,3534203,-20.1861,-49.3464
Orlândia,SP,3534302,-20.7169,-47.8852
Osasco,SP,3534401,-23.5324,-46.7916
Oscar Bressane,SP,3534500,-22.3149,-50.2811
Osvaldo Cruz,SP,3534609,-21.7968,-50.8793
Ourinhos,SP,3534708,-22.9797,-49.8697
Ouroeste,SP,3534757,-20.0061,-50.3768
Ouro Verde,SP,3534807,-21.4872,-51.7024
Pacaembu,SP,3534906,-21.5627,-51.2654
Palestina,SP,3535002,-20.39,-49.4309
Palmares Paulista,SP,3535101,-21.0854,-48.8037
Palmeira d'Oeste,SP,3535200,-20.4148,-50.7632
Palmital,SP,3535309,-22.7858,-50.218
Panorama,SP,3535408,-21.354,-51.8562
Paraguaçu Paulista,SP,3535507,-22.4114,-50.5732
Paraibuna,SP,3535606,-23.3872,-45.6639
Paraíso,SP,3535705,-21.0159,-48.7761
Paranapanema,SP,3535804,-23.3862,-48.7214
Paranapuã,SP,3535903,-20.1048,-50.5886
Parapuã,SP,3536000,-21.7792,-50.7949
Pardinho,SP,3536109,-23.0841,-48.3679
Pariquera-Açu,SP,3536208,-24.7147,-47.8742
Parisi,SP,3536257,-20.3034,-50.0163
Patrocínio Paulista,SP,3536307,-20.6384,-47.2801
Paulicéia,SP,3536406,-21.3153,-51.8321
Paulínia,SP,3536505,-22.7542,-47.1488
Paulistânia,SP,3536570,-22.5768,-49.4008
Paulo de Faria,SP,3536604,-20.0296,-49.4
Pederneiras,SP,3536703,-22.3511,-48.7781
Pedra Bela,SP,3536802,-22.7902,-46.4455
Pedranópolis,SP,3536901,-20.2474,-50.1129
Pedregulho,SP,3537008,-20.2535,-47.4775
Pedreira,SP,3537107,-22.7413,-46.8948
Pedrinhas Paulista,SP,3537156,-22.8174,-50.7933
Pedro de Toledo,SP,3537206,-24.2764,-47.2354
Penápolis,SP,3537305,-21.4148,-50.0769
Pereira Barreto,SP,3537404,-20.6368,-51.1123
Pereiras,SP,3537503,-23.0804,-47.972
Peruíbe,SP,3537602,-24.312,-47.0012
Piacatu,SP,3537701,-21.5921,-50.6003
Piedade,SP,3537800,-23.7139,-47.4256
Pilar do Sul,SP,3537909,-23.8077,-47.7222
Pindamonhangaba,SP,3538006,-22.9246,-45.4613
Pindorama,SP,3538105,-21.1853,-48.9086
Pinhalzinho,SP,3538204,-22.7811,-46.5897
Piquerobi,SP,3538303,-21.8747,-51.7282
Piquete,SP,3538501,-22.6069,-45.1869
Piracaia,SP,3538600,-23.0525,-46.3594
Piracicaba,SP,3538709,-22.7338,-47.6476
Piraju,SP,3538808,-23.1981,-49.3803
Pirajuí,SP,3538907,-21.999,-49.4608
Pirangi,SP,3539004,-21.0886,-48.6607
Pirapora do Bom Jesus,SP,3539103,-23.3965,-46.9991
Pirapozinho,SP,3539202,-22.2711,-51.4976
Pirassununga,SP,3539301,-21.996,-47.4257
Piratininga,SP,3539400,-22.4142,-49.1339
Pitangueiras,SP,3539509,-21.0132,-48.221
Planalto,SP,3539608,-21.0342,-49.933
Platina,SP,3539707,-22.6371,-50.2104
Poá,SP,3539806,-23.5333,-46.3473
Poloni,SP,3539905,-20.7829,-49.8258
Pompéia,SP,3540002,-22.107,-50.176
Pongaí,SP,3540101,-21.7396,-49.3604
Pontal,SP,3540200,-21.0216,-48.0423
Pontalinda,SP,3540259,-20.4396,-50.5258
Pontes Gestal,SP,3540309,-20.1727,-49.7064
Populina,SP,3540408,-19.9453,-50.538
Porangaba,SP,3540507,-23.1761,-48.1195
Porto Feliz,SP,3540606,-23.2093,-47.5251
Porto Ferreira,SP,3540705,-21.8498,-47.487
Potim,SP,3540754,-22.8343,-45.2552
Potirendaba,SP,3540804,-21.0428,-49.3815
Pracinha,SP,3540853,-21.8496,-51.0868
Pradópolis,SP,3540903,-21.3626,-48.0679
Praia Grande,SP,3541000,-24.0084,-46.4121
Pratânia,SP,3541059,-22.8112,-48.6636
Presidente Alves,SP,3541109,-22.0999,-49.4381
Presidente Bernardes,SP,3541208,-22.0082,-51.5565
Presidente Epitácio,SP,3541307,-21.7651,-52.1111
Presidente Prudente,SP,3541406,-22.1207,-51.3925
Presidente Venceslau,SP,3541505,-21.8732,-51.8447
Promissão,SP,3541604,-21.5356,-49.8599
Quadra,SP,3541653,-23.2993,-48.0547
Quatá,SP,3541703,-22.2456,-50.6966
Queiroz,SP,3541802,-21.7969,-50.2415
Queluz,SP,3541901,-22.5312,-44.7781
Quintana,SP,3542008,-22.0692,-50.307
Rafard,SP,3542107,-23.0105,-47.5318
Rancharia,SP,3542206,-22.2269,-50.893
Redenção da Serra,SP,3542305,-23.2638,-45.5422
Regente Feijó,SP,3542404,-22.2181,-51.3055
Reginópolis,SP,3542503,-21.8914,-49.2268
Registro,SP,3542602,-24.4979,-47.8449
Restinga,SP,3542701,-20.6056,-47.4833
Ribeira,SP,3542800,-24.6517,-49.0044
Ribeirão Bonito,SP,3542909,-22.0685,-48.182
Ribeirão Branco,SP,3543006,-24.2206,-48.7635
Ribeirão Corrente,SP,3543105,-20.4579,-47.5904
Ribeirão do Sul,SP,3543204,-22.789,-49.933
Ribeirão dos Índios,SP,3543238,-21.8382,-51.6103
Ribeirão Grande,SP,3543253,-24.1011,-48.3679
Ribeirão Pires,SP,3543303,-23.7067,-46.4058
Ribeirão Preto,SP,3543402,-21.1699,-47.8099
Riversul,SP,3543501,-23.829,-49.429
Rifaina,SP,3543600,-20.0803,-47.4291
Rincão,SP,3543709,-21.5894,-48.0728
Rinópolis,SP,3543808,-21.7284,-50.7239
Rio Claro,SP,3543907,-22.3984,-47.5546
Rio das Pedras,SP,3544004,-22.8417,-47.6047
Rio Grande da Serra,SP,3544103,-23.7437,-46.3971
Riolândia,SP,3544202,-19.9868,-49.6836
Rosana,SP,3544251,-22.5782,-53.0603
Roseira,SP,3544301,-22.8938,-45.307
Rubiácea,SP,3544400,-21.3006,-50.7296
Rubinéia,SP,3544509,-20.1759,-51.007
Sabino,SP,3544608,-21.4593,-49.5755
Sagres,SP,3544707,-21.8823,-50.9594
Sales,SP,3544806,-21.3427,-49.4897
Sales Oliveira,SP,3544905,-20.7696,-47.8369
Salesópolis,SP,3545001,-23.5288,-45.8465
Salmourão,SP,3545100,-21.6267,-50.8614
Saltinho,SP,3545159,-22.8442,-47.6754
Salto,SP,3545209,-23.1996,-47.2931
Salto de Pirapora,SP,3545308,-23.6474,-47.5743
Salto Grande,SP,3545407,-22.8894,-49.9831
Sandovalina,SP,3545506,-22.4551,-51.7648
Santa Adélia,SP,3545605,-21.2427,-48.8063
Santa Albertina,SP,3545704,-20.0311,-50.7297
Santa Bárbara d'Oeste,SP,3545803,-22.7553,-47.4143
Santa Branca,SP,3546009,-23.3933,-45.8875
Santa Clara d'Oeste,SP,3546108,-20.09,-50.9491
Santa Cruz da Conceição,SP,3546207,-22.1405,-47.4512
Santa Cruz da Esperança,SP,3546256,-21.2951,-47.4304
Santa Cruz das Palmeiras,SP,3546306,-21.8235,-47.248
Santa Cruz do Rio Pardo,SP,3546405,-22.8988,-49.6354
Santa Ernestina,SP,3546504,-21.4618,-48.3953
Santa Fé do Sul,SP,3546603,-20.2083,-50.932
Santa Gertrudes,SP,3546702,-22.4572,-47.5272
Santa Isabel,SP,3546801,-23.3172,-46.2237
Santa Lúcia,SP,3546900,-21.685,-48.0885
Santa Maria da Serra,SP,3547007,-22.5661,-48.1593
Santa Mercedes,SP,3547106,-21.3495,-51.7564
Santana da Ponte Pensa,SP,3547205,-20.2523,-50.8014
Santana de Parnaíba,SP,3547304,-23.4439,-46.9178
Santa Rita d'Oeste,SP,3547403,-20.1414,-50.8358
Santa Rita do Passa Quatro,SP,3547502,-21.7083,-47.478
Santa Rosa de Viterbo,SP,3547601,-21.4776,-47.3622
Santa Salete,SP,3547650,-20.2429,-50.6887
Santo Anastácio,SP,3547700,-21.9747,-51.6527
Santo André,SP,3547809,-23.6737,-46.5432
Santo Antônio da Alegria,SP,3547908,-21.0864,-47.1464
Santo Antônio de Posse,SP,3548005,-22.6029,-46.9192
Santo Antônio do Aracanguá,SP,3548054,-20.9331,-50.498
Santo Antônio do Jardim,SP,3548104,-22.1121,-46.6845
Santo Antônio do Pinhal,SP,3548203,-22.827,-45.663
Santo Expedito,SP,3548302,-21.8467,-51.3929
Santópolis do Aguapeí,SP,3548401,-21.6376,-50.5044
Santos,SP,3548500,-23.9535,-46.335
São Bento do Sapucaí,SP,3548609,-22.6837,-45.7287
São Bernardo do Campo,SP,3548708,-23.6914,-46.5646
São Carlos,SP,3548906,-22.0174,-47.886
São Francisco,SP,3549003,-20.3623,-50.6952
São João da Boa Vista,SP,3549102,-21.9707,-46.7944
São João das Duas Pontes,SP,3549201,-20.3879,-50.3792
São João de Iracema,SP,3549250,-20.5111,-50.3561
São João do Pau d'Alho,SP,3549300,-21.2662,-51.6672
São Joaquim da Barra,SP,3549409,-20.5812,-47.8593
São José da Bela Vista,SP,3549508,-20.5935,-47.6424
São José do Barreiro,SP,3549607,-22.6414,-44.5774
São José do Rio Pardo,SP,3549706,-21.5953,-46.8873
São José do Rio Preto,SP,3549805,-20.8113,-49.3758
São José dos Campos,SP,3549904,-23.1896,-45.8841
São Lourenço da Serra,SP,3549953,-23.8491,-46.9432
São Luiz do Paraitinga,SP,3550001,-23.222,-45.3109
São Manuel,SP,3550100,-22.7321,-48.5723
São Miguel Arcanjo,SP,3550209,-23.8782,-47.9935
São Paulo,SP,3550308,-23.5329,-46.6395
São Pedro,SP,3550407,-22.5483,-47.9096
São Pedro do Turvo,SP,3550506,-22.7453,-49.7428
São Roque,SP,3550605,-23.5226,-47.1357
São Sebastião,SP,3550704,-23.7951,-45.4143
São Sebastião da Grama,SP,3550803,-21.7041,-46.8208
São Simão,SP,3550902,-21.4732,-47.5518
São Vicente,SP,3551009,-23.9574,-46.3883
Sarapuí,SP,3551108,-23.6397,-47.8249
Sarutaiá,SP,3551207,-23.2721,-49.4763
Sebastianópolis do Sul,SP,3551306,-20.6523,-49.925
Serra Azul,SP,3551405,-21.3074,-47.5602
Serrana,SP,3551504,-21.2043,-47.5952
Serra Negra,SP,3551603,-22.6139,-46.7033
Sertãozinho,SP,3551702,-21.1316,-47.9875
Sete Barras,SP,3551801,-24.382,-47.9279
Severínia,SP,3551900,-20.8108,-48.8054
Silveiras,SP,3552007,-22.6638,-44.8522
Socorro,SP,3552106,-22.5903,-46.5251
Sorocaba,SP,3552205,-23.4969,-47.4451
Sud Mennucci,SP,3552304,-20.6872,-50.9238
Sumaré,SP,3552403,-22.8204,-47.2728
Suzano,SP,3552502,-23.5448,-46.3112
Suzanápolis,SP,3552551,-20.4981,-51.0268
Tabapuã,SP,3552601,-20.9602,-49.0307
Tabatinga,SP,3552700,-21.7239,-48.6896
Taboão da Serra,SP,3552809,-23.6019,-46.7526
Taciba,SP,3552908,-22.3866,-51.2882
Taguaí,SP,3553005,-23.4452,-49.4024
Taiaçu,SP,3553104,-21.1431,-48.5112
Taiúva,SP,3553203,-21.1223,-48.4528
Tambaú,SP,3553302,-21.7029,-47.2703
Tanabi,SP,3553401,-20.6228,-49.6563
Tapiraí,SP,3553500,-23.9612,-47.5062
Tapiratiba,SP,3553609,-21.4713,-46.7448
Taquaral,SP,3553658,-21.0737,-48.4126
Taquaritinga,SP,3553708,-21.4049,-48.5103
Taquarituba,SP,3553807,-23.5307,-49.241
Taquarivaí,SP,3553856,-23.9211,-48.6948
Tarabai,SP,3553906,-22.3016,-51.5621
Tarumã,SP,3553955,-22.7429,-50.5786
Tatuí,SP,3554003,-23.3487,-47.8461
Taubaté,SP,3554102,-23.0104,-45.5593
Tejupá,SP,3554201,-23.3425,-49.3722
Teodoro Sampaio,SP,3554300,-22.5299,-52.1682
Terra Roxa,SP,3554409,-20.787,-48.3314
Tietê,SP,3554508,-23.1101,-47.7164
Timburi,SP,3554607,-23.2057,-49.6096
Torre de Pedra,SP,3554656,-23.2462,-48.1955
Torrinha,SP,3554706,-22.4237,-48.1731
Trabiju,SP,3554755,-22.0388,-48.3342
Tremembé,SP,3554805,-22.9571,-45.5475
Três Fronteiras,SP,3554904,-20.2344,-50.8905
Tuiuti,SP,3554953,-22.8193,-46.6937
Tupã,SP,3555000,-21.9335,-50.5191
Tupi Paulista,SP,3555109,-21.3825,-51.575
Turiúba,SP,3555208,-20.9428,-50.1135
Turmalina,SP,3555307,-20.0486,-50.4792
Ubarana,SP,3555356,-21.165,-49.7198
Ubatuba,SP,3555406,-23.4332,-45.0834
Ubirajara,SP,3555505,-22.5272,-49.6613
Uchoa,SP,3555604,-20.9511,-49.1713
União Paulista,SP,3555703,-20.8862,-49.9025
Urânia,SP,3555802,-20.2455,-50.6455
Uru,SP,3555901,-21.7866,-49.2848
Urupês,SP,3556008,-21.2032,-49.2931
Valentim Gentil,SP,3556107,-20.4217,-50.0889
Valinhos,SP,3556206,-22.9698,-46.9974
Valparaíso,SP,3556305,-21.2229,-50.8699
Vargem,SP,3556354,-22.887,-46.4124
Vargem Grande do Sul,SP,3556404,-21.8322,-46.8913
Vargem Grande Paulista,SP,3556453,-23.5993,-47.022
Várzea Paulista,SP,3556503,-23.2136,-46.8234
Vera Cruz,SP,3556602,-22.2183,-49.8207
Vinhedo,SP,3556701,-23.0302,-46.9833
Viradouro,SP,3556800,-20.8734,-48.293
Vista Alegre do Alto,SP,3556909,-21.1692,-48.6284
Vitória Brasil,SP,3556958,-20.1956,-50.4875
Votorantim,SP,3557006,-23.5446,-47.4388
Votuporanga,SP,3557105,-20.4237,-49.9781
Zacarias,SP,3557154,-21.0506,-50.0552
Chavantes,SP,3557204,-23.0366,-49.7096
Estiva Gerbi,SP,3557303,-22.2713,-46.9481
